$GNRMC,223526.477,A,2500.81042,N,12131.69286,E,0.004,0.00,120625,,,A*00
$GNGGA,223526.477,2500.81042,N,12131.69286,E,1,08,1.0,0.0,M,0.0,M,,*00
$GNRMC,223526.526,A,2500.81042,N,12131.69286,E,0.004,0.00,120625,,,A*00
$GNGGA,223526.526,2500.81042,N,12131.69286,E,1,08,1.0,0.0,M,0.0,M,,*00
$GNRMC,223526.576,A,2500.81044,N,12131.69287,E,0.004,0.00,120625,,,A*00
$GNGGA,223526.576,2500.81044,N,12131.69287,E,1,08,1.0,0.0,M,0.0,M,,*00
$GNRMC,223526.626,A,2500.81044,N,12131.69287,E,0.004,0.00,120625,,,A*00
$GNGGA,223526.626,2500.81044,N,12131.69287,E,1,08,1.0,0.0,M,0.0,M,,*00
$GNRMC,223526.676,A,2500.81044,N,12131.69287,E,0.004,0.00,120625,,,A*00
$GNGGA,223526.676,2500.81044,N,12131.69287,E,1,08,1.0,0.0,M,0.0,M,,*00
$GNRMC,223526.726,A,2500.81044,N,12131.69287,E,0.004,0.00,120625,,,A*00
$GNGGA,223526.726,2500.81044,N,12131.69287,E,1,08,1.0,0.0,M,0.0,M,,*00
$GNRMC,223526.776,A,2500.81047,N,12131.69292,E,0.004,0.00,120625,,,A*00
$GNGGA,223526.776,2500.81047,N,12131.69292,E,1,08,1.0,0.0,M,0.0,M,,*00
$GNRMC,223526.826,A,2500.81047,N,12131.69292,E,0.004,0.00,120625,,,A*00
$GNGGA,223526.826,2500.81047,N,12131.69292,E,1,08,1.0,0.0,M,0.0,M,,*00
$GNRMC,223526.876,A,2500.81047,N,12131.69292,E,0.004,0.00,120625,,,A*00
$GNGGA,223526.876,2500.81047,N,12131.69292,E,1,08,1.0,0.0,M,0.0,M,,*00
$GNRMC,223526.926,A,2500.81047,N,12131.69292,E,0.004,0.00,120625,,,A*00
$GNGGA,223526.926,2500.81047,N,12131.69292,E,1,08,1.0,0.0,M,0.0,M,,*00
$GNRMC,223526.976,A,2500.81050,N,12131.69295,E,0.004,0.00,120625,,,A*00
$GNGGA,223526.976,2500.81050,N,12131.69295,E,1,08,1.0,0.0,M,0.0,M,,*00
$GNRMC,223527.026,A,2500.81050,N,12131.69295,E,0.004,0.00,120625,,,A*00
$GNGGA,223527.026,2500.81050,N,12131.69295,E,1,08,1.0,0.0,M,0.0,M,,*00
$GNRMC,223527.076,A,2500.81050,N,12131.69295,E,0.004,0.00,120625,,,A*00
$GNGGA,223527.076,2500.81050,N,12131.69295,E,1,08,1.0,0.0,M,0.0,M,,*00
$GNRMC,223527.126,A,2500.81050,N,12131.69295,E,0.004,0.00,120625,,,A*00
$GNGGA,223527.126,2500.81050,N,12131.69295,E,1,08,1.0,0.0,M,0.0,M,,*00
$GNRMC,223527.176,A,2500.81050,N,12131.69295,E,0.004,0.00,120625,,,A*00
$GNGGA,223527.176,2500.81050,N,12131.69295,E,1,08,1.0,0.0,M,0.0,M,,*00
$GNRMC,223527.226,A,2500.81050,N,12131.69295,E,0.004,0.00,120625,,,A*00
$GNGGA,223527.226,2500.81050,N,12131.69295,E,1,08,1.0,0.0,M,0.0,M,,*00
$GNRMC,223527.276,A,2500.81050,N,12131.69295,E,0.004,0.00,120625,,,A*00
$GNGGA,223527.276,2500.81050,N,12131.69295,E,1,08,1.0,0.0,M,0.0,M,,*00
$GNRMC,223527.326,A,2500.81050,N,12131.69295,E,0.004,0.00,120625,,,A*00
$GNGGA,223527.326,2500.81050,N,12131.69295,E,1,08,1.0,0.0,M,0.0,M,,*00
$GNRMC,223527.376,A,2500.81050,N,12131.69295,E,0.004,0.00,120625,,,A*00
$GNGGA,223527.376,2500.81050,N,12131.69295,E,1,08,1.0,0.0,M,0.0,M,,*00
$GNRMC,223527.426,A,2500.81050,N,12131.69295,E,0.004,0.00,120625,,,A*00
$GNGGA,223527.426,2500.81050,N,12131.69295,E,1,08,1.0,0.0,M,0.0,M,,*00
$GNRMC,223527.476,A,2500.81050,N,12131.69295,E,0.004,0.00,120625,,,A*00
$GNGGA,223527.476,2500.81050,N,12131.69295,E,1,08,1.0,0.0,M,0.0,M,,*00
$GNRMC,223527.526,A,2500.81050,N,12131.69295,E,0.004,0.00,120625,,,A*00
$GNGGA,223527.526,2500.81050,N,12131.69295,E,1,08,1.0,0.0,M,0.0,M,,*00
$GNRMC,223527.576,A,2500.81051,N,12131.69295,E,0.004,0.00,120625,,,A*00
$GNGGA,223527.576,2500.81051,N,12131.69295,E,1,08,1.0,0.0,M,0.0,M,,*00
$GNRMC,223527.626,A,2500.81051,N,12131.69295,E,0.004,0.00,120625,,,A*00
$GNGGA,223527.626,2500.81051,N,12131.69295,E,1,08,1.0,0.0,M,0.0,M,,*00
$GNRMC,223527.676,A,2500.81051,N,12131.69295,E,0.004,0.00,120625,,,A*00
$GNGGA,223527.676,2500.81051,N,12131.69295,E,1,08,1.0,0.0,M,0.0,M,,*00
$GNRMC,223527.726,A,2500.81051,N,12131.69295,E,0.004,0.00,120625,,,A*00
$GNGGA,223527.726,2500.81051,N,12131.69295,E,1,08,1.0,0.0,M,0.0,M,,*00
$GNRMC,223527.776,A,2500.81051,N,12131.69295,E,0.004,0.00,120625,,,A*00
$GNGGA,223527.776,2500.81051,N,12131.69295,E,1,08,1.0,0.0,M,0.0,M,,*00
$GNRMC,223527.826,A,2500.81051,N,12131.69295,E,0.004,0.00,120625,,,A*00
$GNGGA,223527.826,2500.81051,N,12131.69295,E,1,08,1.0,0.0,M,0.0,M,,*00
$GNRMC,223527.876,A,2500.81051,N,12131.69295,E,0.004,0.00,120625,,,A*00
$GNGGA,223527.876,2500.81051,N,12131.69295,E,1,08,1.0,0.0,M,0.0,M,,*00
$GNRMC,223527.926,A,2500.81051,N,12131.69295,E,0.004,0.00,120625,,,A*00
$GNGGA,223527.926,2500.81051,N,12131.69295,E,1,08,1.0,0.0,M,0.0,M,,*00
$GNRMC,223527.976,A,2500.81051,N,12131.69295,E,0.004,0.00,120625,,,A*00
$GNGGA,223527.976,2500.81051,N,12131.69295,E,1,08,1.0,0.0,M,0.0,M,,*00
$GNRMC,223528.026,A,2500.81051,N,12131.69295,E,0.004,0.00,120625,,,A*00
$GNGGA,223528.026,2500.81051,N,12131.69295,E,1,08,1.0,0.0,M,0.0,M,,*00
$GNRMC,223528.076,A,2500.81051,N,12131.69295,E,0.004,0.00,120625,,,A*00
$GNGGA,223528.076,2500.81051,N,12131.69295,E,1,08,1.0,0.0,M,0.0,M,,*00
$GNRMC,223528.126,A,2500.81051,N,12131.69295,E,0.004,0.00,120625,,,A*00
$GNGGA,223528.126,2500.81051,N,12131.69295,E,1,08,1.0,0.0,M,0.0,M,,*00
$GNRMC,223528.176,A,2500.81051,N,12131.69295,E,0.004,0.00,120625,,,A*00
$GNGGA,223528.176,2500.81051,N,12131.69295,E,1,08,1.0,0.0,M,0.0,M,,*00
$GNRMC,223528.226,A,2500.81051,N,12131.69295,E,0.004,0.00,120625,,,A*00
$GNGGA,223528.226,2500.81051,N,12131.69295,E,1,08,1.0,0.0,M,0.0,M,,*00
$GNRMC,223528.276,A,2500.81051,N,12131.69295,E,0.004,0.00,120625,,,A*00
$GNGGA,223528.276,2500.81051,N,12131.69295,E,1,08,1.0,0.0,M,0.0,M,,*00
$GNRMC,223528.326,A,2500.81051,N,12131.69295,E,0.004,0.00,120625,,,A*00
$GNGGA,223528.326,2500.81051,N,12131.69295,E,1,08,1.0,0.0,M,0.0,M,,*00
$GNRMC,223528.376,A,2500.81051,N,12131.69295,E,0.004,0.00,120625,,,A*00
$GNGGA,223528.376,2500.81051,N,12131.69295,E,1,08,1.0,0.0,M,0.0,M,,*00
$GNRMC,223528.426,A,2500.81051,N,12131.69295,E,0.004,0.00,120625,,,A*00
$GNGGA,223528.426,2500.81051,N,12131.69295,E,1,08,1.0,0.0,M,0.0,M,,*00
$GNRMC,223528.476,A,2500.81051,N,12131.69295,E,0.004,0.00,120625,,,A*00
$GNGGA,223528.476,2500.81051,N,12131.69295,E,1,08,1.0,0.0,M,0.0,M,,*00
$GNRMC,223528.526,A,2500.81051,N,12131.69295,E,0.004,0.00,120625,,,A*00
$GNGGA,223528.526,2500.81051,N,12131.69295,E,1,08,1.0,0.0,M,0.0,M,,*00
$GNRMC,223528.576,A,2500.81051,N,12131.69295,E,0.004,0.00,120625,,,A*00
$GNGGA,223528.576,2500.81051,N,12131.69295,E,1,08,1.0,0.0,M,0.0,M,,*00
$GNRMC,223528.626,A,2500.81051,N,12131.69295,E,0.004,0.00,120625,,,A*00
$GNGGA,223528.626,2500.81051,N,12131.69295,E,1,08,1.0,0.0,M,0.0,M,,*00
$GNRMC,223528.676,A,2500.81051,N,12131.69295,E,0.004,0.00,120625,,,A*00
$GNGGA,223528.676,2500.81051,N,12131.69295,E,1,08,1.0,0.0,M,0.0,M,,*00
$GNRMC,223528.726,A,2500.81051,N,12131.69295,E,0.004,0.00,120625,,,A*00
$GNGGA,223528.726,2500.81051,N,12131.69295,E,1,08,1.0,0.0,M,0.0,M,,*00
$GNRMC,223528.776,A,2500.81053,N,12131.69295,E,0.004,0.00,120625,,,A*00
$GNGGA,223528.776,2500.81053,N,12131.69295,E,1,08,1.0,0.0,M,0.0,M,,*00
$GNRMC,223528.826,A,2500.81053,N,12131.69295,E,0.004,0.00,120625,,,A*00
$GNGGA,223528.826,2500.81053,N,12131.69295,E,1,08,1.0,0.0,M,0.0,M,,*00
$GNRMC,223528.876,A,2500.81053,N,12131.69295,E,0.004,0.00,120625,,,A*00
$GNGGA,223528.876,2500.81053,N,12131.69295,E,1,08,1.0,0.0,M,0.0,M,,*00
$GNRMC,223528.926,A,2500.81053,N,12131.69295,E,0.004,0.00,120625,,,A*00
$GNGGA,223528.926,2500.81053,N,12131.69295,E,1,08,1.0,0.0,M,0.0,M,,*00
$GNRMC,223528.976,A,2500.81064,N,12131.69305,E,0.004,0.00,120625,,,A*00
$GNGGA,223528.976,2500.81064,N,12131.69305,E,1,08,1.0,0.0,M,0.0,M,,*00
$GNRMC,223529.026,A,2500.81064,N,12131.69305,E,0.004,0.00,120625,,,A*00
$GNGGA,223529.026,2500.81064,N,12131.69305,E,1,08,1.0,0.0,M,0.0,M,,*00
$GNRMC,223529.076,A,2500.81064,N,12131.69305,E,0.004,0.00,120625,,,A*00
$GNGGA,223529.076,2500.81064,N,12131.69305,E,1,08,1.0,0.0,M,0.0,M,,*00
$GNRMC,223529.126,A,2500.81064,N,12131.69305,E,0.004,0.00,120625,,,A*00
$GNGGA,223529.126,2500.81064,N,12131.69305,E,1,08,1.0,0.0,M,0.0,M,,*00
$GNRMC,223529.176,A,2500.81108,N,12131.69349,E,0.004,0.00,120625,,,A*00
$GNGGA,223529.176,2500.81108,N,12131.69349,E,1,08,1.0,0.0,M,0.0,M,,*00
$GNRMC,223529.226,A,2500.81108,N,12131.69349,E,0.004,0.00,120625,,,A*00
$GNGGA,223529.226,2500.81108,N,12131.69349,E,1,08,1.0,0.0,M,0.0,M,,*00
$GNRMC,223529.276,A,2500.81108,N,12131.69349,E,0.004,0.00,120625,,,A*00
$GNGGA,223529.276,2500.81108,N,12131.69349,E,1,08,1.0,0.0,M,0.0,M,,*00
$GNRMC,223529.326,A,2500.81108,N,12131.69349,E,0.004,0.00,120625,,,A*00
$GNGGA,223529.326,2500.81108,N,12131.69349,E,1,08,1.0,0.0,M,0.0,M,,*00
$GNRMC,223529.376,A,2500.81203,N,12131.69438,E,0.004,0.00,120625,,,A*00
$GNGGA,223529.376,2500.81203,N,12131.69438,E,1,08,1.0,0.0,M,0.0,M,,*00
$GNRMC,223529.426,A,2500.81203,N,12131.69438,E,0.004,0.00,120625,,,A*00
$GNGGA,223529.426,2500.81203,N,12131.69438,E,1,08,1.0,0.0,M,0.0,M,,*00
$GNRMC,223529.476,A,2500.81203,N,12131.69438,E,0.004,0.00,120625,,,A*00
$GNGGA,223529.476,2500.81203,N,12131.69438,E,1,08,1.0,0.0,M,0.0,M,,*00
$GNRMC,223529.526,A,2500.81203,N,12131.69438,E,0.004,0.00,120625,,,A*00
$GNGGA,223529.526,2500.81203,N,12131.69438,E,1,08,1.0,0.0,M,0.0,M,,*00
$GNRMC,223529.576,A,2500.81255,N,12131.69595,E,0.004,0.00,120625,,,A*00
$GNGGA,223529.576,2500.81255,N,12131.69595,E,1,08,1.0,0.0,M,0.0,M,,*00
$GNRMC,223529.626,A,2500.81255,N,12131.69595,E,0.004,0.00,120625,,,A*00
$GNGGA,223529.626,2500.81255,N,12131.69595,E,1,08,1.0,0.0,M,0.0,M,,*00
$GNRMC,223529.676,A,2500.81255,N,12131.69595,E,0.004,0.00,120625,,,A*00
$GNGGA,223529.676,2500.81255,N,12131.69595,E,1,08,1.0,0.0,M,0.0,M,,*00
$GNRMC,223529.726,A,2500.81255,N,12131.69595,E,0.004,0.00,120625,,,A*00
$GNGGA,223529.726,2500.81255,N,12131.69595,E,1,08,1.0,0.0,M,0.0,M,,*00
$GNRMC,223529.776,A,2500.81193,N,12131.69833,E,0.004,0.00,120625,,,A*00
$GNGGA,223529.776,2500.81193,N,12131.69833,E,1,08,1.0,0.0,M,0.0,M,,*00
$GNRMC,223529.826,A,2500.81193,N,12131.69833,E,0.004,0.00,120625,,,A*00
$GNGGA,223529.826,2500.81193,N,12131.69833,E,1,08,1.0,0.0,M,0.0,M,,*00
$GNRMC,223529.876,A,2500.81193,N,12131.69833,E,0.004,0.00,120625,,,A*00
$GNGGA,223529.876,2500.81193,N,12131.69833,E,1,08,1.0,0.0,M,0.0,M,,*00
$GNRMC,223529.926,A,2500.81193,N,12131.69833,E,0.004,0.00,120625,,,A*00
$GNGGA,223529.926,2500.81193,N,12131.69833,E,1,08,1.0,0.0,M,0.0,M,,*00
$GNRMC,223529.976,A,2500.80947,N,12131.70132,E,0.004,0.00,120625,,,A*00
$GNGGA,223529.976,2500.80947,N,12131.70132,E,1,08,1.0,0.0,M,0.0,M,,*00
$GNRMC,223530.026,A,2500.80947,N,12131.70132,E,0.004,0.00,120625,,,A*00
$GNGGA,223530.026,2500.80947,N,12131.70132,E,1,08,1.0,0.0,M,0.0,M,,*00
$GNRMC,223530.076,A,2500.80947,N,12131.70132,E,0.004,0.00,120625,,,A*00
$GNGGA,223530.076,2500.80947,N,12131.70132,E,1,08,1.0,0.0,M,0.0,M,,*00
$GNRMC,223530.126,A,2500.80947,N,12131.70132,E,0.004,0.00,120625,,,A*00
$GNGGA,223530.126,2500.80947,N,12131.70132,E,1,08,1.0,0.0,M,0.0,M,,*00
$GNRMC,223530.176,A,2500.80615,N,12131.70312,E,0.004,0.00,120625,,,A*00
$GNGGA,223530.176,2500.80615,N,12131.70312,E,1,08,1.0,0.0,M,0.0,M,,*00
$GNRMC,223530.226,A,2500.80615,N,12131.70312,E,0.004,0.00,120625,,,A*00
$GNGGA,223530.226,2500.80615,N,12131.70312,E,1,08,1.0,0.0,M,0.0,M,,*00
$GNRMC,223530.276,A,2500.80615,N,12131.70312,E,0.004,0.00,120625,,,A*00
$GNGGA,223530.276,2500.80615,N,12131.70312,E,1,08,1.0,0.0,M,0.0,M,,*00
$GNRMC,223530.326,A,2500.80615,N,12131.70312,E,0.004,0.00,120625,,,A*00
$GNGGA,223530.326,2500.80615,N,12131.70312,E,1,08,1.0,0.0,M,0.0,M,,*00
$GNRMC,223530.376,A,2500.80315,N,12131.70276,E,0.004,0.00,120625,,,A*00
$GNGGA,223530.376,2500.80315,N,12131.70276,E,1,08,1.0,0.0,M,0.0,M,,*00
$GNRMC,223530.426,A,2500.80315,N,12131.70276,E,0.004,0.00,120625,,,A*00
$GNGGA,223530.426,2500.80315,N,12131.70276,E,1,08,1.0,0.0,M,0.0,M,,*00
$GNRMC,223530.476,A,2500.80315,N,12131.70276,E,0.004,0.00,120625,,,A*00
$GNGGA,223530.476,2500.80315,N,12131.70276,E,1,08,1.0,0.0,M,0.0,M,,*00
$GNRMC,223530.526,A,2500.80315,N,12131.70276,E,0.004,0.00,120625,,,A*00
$GNGGA,223530.526,2500.80315,N,12131.70276,E,1,08,1.0,0.0,M,0.0,M,,*00
$GNRMC,223530.576,A,2500.80304,N,12131.69984,E,0.004,0.00,120625,,,A*00
$GNGGA,223530.576,2500.80304,N,12131.69984,E,1,08,1.0,0.0,M,0.0,M,,*00
$GNRMC,223530.626,A,2500.80304,N,12131.69984,E,0.004,0.00,120625,,,A*00
$GNGGA,223530.626,2500.80304,N,12131.69984,E,1,08,1.0,0.0,M,0.0,M,,*00
$GNRMC,223530.676,A,2500.80304,N,12131.69984,E,0.004,0.00,120625,,,A*00
$GNGGA,223530.676,2500.80304,N,12131.69984,E,1,08,1.0,0.0,M,0.0,M,,*00
$GNRMC,223530.726,A,2500.80304,N,12131.69984,E,0.004,0.00,120625,,,A*00
$GNGGA,223530.726,2500.80304,N,12131.69984,E,1,08,1.0,0.0,M,0.0,M,,*00
$GNRMC,223530.776,A,2500.80713,N,12131.69488,E,0.004,0.00,120625,,,A*00
$GNGGA,223530.776,2500.80713,N,12131.69488,E,1,08,1.0,0.0,M,0.0,M,,*00
$GNRMC,223530.826,A,2500.80713,N,12131.69488,E,0.004,0.00,120625,,,A*00
$GNGGA,223530.826,2500.80713,N,12131.69488,E,1,08,1.0,0.0,M,0.0,M,,*00
$GNRMC,223530.876,A,2500.80713,N,12131.69488,E,0.004,0.00,120625,,,A*00
$GNGGA,223530.876,2500.80713,N,12131.69488,E,1,08,1.0,0.0,M,0.0,M,,*00
$GNRMC,223530.926,A,2500.80713,N,12131.69488,E,0.004,0.00,120625,,,A*00
$GNGGA,223530.926,2500.80713,N,12131.69488,E,1,08,1.0,0.0,M,0.0,M,,*00
$GNRMC,223530.976,A,2500.81074,N,12131.69134,E,0.004,0.00,120625,,,A*00
$GNGGA,223530.976,2500.81074,N,12131.69134,E,1,08,1.0,0.0,M,0.0,M,,*00
$GNRMC,223531.026,A,2500.81074,N,12131.69134,E,0.004,0.00,120625,,,A*00
$GNGGA,223531.026,2500.81074,N,12131.69134,E,1,08,1.0,0.0,M,0.0,M,,*00
$GNRMC,223531.076,A,2500.81074,N,12131.69134,E,0.004,0.00,120625,,,A*00
$GNGGA,223531.076,2500.81074,N,12131.69134,E,1,08,1.0,0.0,M,0.0,M,,*00
$GNRMC,223531.126,A,2500.81074,N,12131.69134,E,0.004,0.00,120625,,,A*00
$GNGGA,223531.126,2500.81074,N,12131.69134,E,1,08,1.0,0.0,M,0.0,M,,*00
$GNRMC,223531.176,A,2500.81343,N,12131.68940,E,0.004,0.00,120625,,,A*00
$GNGGA,223531.176,2500.81343,N,12131.68940,E,1,08,1.0,0.0,M,0.0,M,,*00
$GNRMC,223531.226,A,2500.81343,N,12131.68940,E,0.004,0.00,120625,,,A*00
$GNGGA,223531.226,2500.81343,N,12131.68940,E,1,08,1.0,0.0,M,0.0,M,,*00
$GNRMC,223531.276,A,2500.81343,N,12131.68940,E,0.004,0.00,120625,,,A*00
$GNGGA,223531.276,2500.81343,N,12131.68940,E,1,08,1.0,0.0,M,0.0,M,,*00
$GNRMC,223531.326,A,2500.81343,N,12131.68940,E,0.004,0.00,120625,,,A*00
$GNGGA,223531.326,2500.81343,N,12131.68940,E,1,08,1.0,0.0,M,0.0,M,,*00
$GNRMC,223531.376,A,2500.81610,N,12131.69034,E,0.004,0.00,120625,,,A*00
$GNGGA,223531.376,2500.81610,N,12131.69034,E,1,08,1.0,0.0,M,0.0,M,,*00
$GNRMC,223531.426,A,2500.81610,N,12131.69034,E,0.004,0.00,120625,,,A*00
$GNGGA,223531.426,2500.81610,N,12131.69034,E,1,08,1.0,0.0,M,0.0,M,,*00
$GNRMC,223531.476,A,2500.81610,N,12131.69034,E,0.004,0.00,120625,,,A*00
$GNGGA,223531.476,2500.81610,N,12131.69034,E,1,08,1.0,0.0,M,0.0,M,,*00
$GNRMC,223531.526,A,2500.81610,N,12131.69034,E,0.004,0.00,120625,,,A*00
$GNGGA,223531.526,2500.81610,N,12131.69034,E,1,08,1.0,0.0,M,0.0,M,,*00
$GNRMC,223531.576,A,2500.81806,N,12131.69411,E,0.004,0.00,120625,,,A*00
$GNGGA,223531.576,2500.81806,N,12131.69411,E,1,08,1.0,0.0,M,0.0,M,,*00
$GNRMC,223531.626,A,2500.81806,N,12131.69411,E,0.004,0.00,120625,,,A*00
$GNGGA,223531.626,2500.81806,N,12131.69411,E,1,08,1.0,0.0,M,0.0,M,,*00
$GNRMC,223531.676,A,2500.81806,N,12131.69411,E,0.004,0.00,120625,,,A*00
$GNGGA,223531.676,2500.81806,N,12131.69411,E,1,08,1.0,0.0,M,0.0,M,,*00
$GNRMC,223531.726,A,2500.81806,N,12131.69411,E,0.004,0.00,120625,,,A*00
$GNGGA,223531.726,2500.81806,N,12131.69411,E,1,08,1.0,0.0,M,0.0,M,,*00
$GNRMC,223531.776,A,2500.81755,N,12131.69813,E,0.004,0.00,120625,,,A*00
$GNGGA,223531.776,2500.81755,N,12131.69813,E,1,08,1.0,0.0,M,0.0,M,,*00
$GNRMC,223531.826,A,2500.81755,N,12131.69813,E,0.004,0.00,120625,,,A*00
$GNGGA,223531.826,2500.81755,N,12131.69813,E,1,08,1.0,0.0,M,0.0,M,,*00
$GNRMC,223531.876,A,2500.81755,N,12131.69813,E,0.004,0.00,120625,,,A*00
$GNGGA,223531.876,2500.81755,N,12131.69813,E,1,08,1.0,0.0,M,0.0,M,,*00
$GNRMC,223531.926,A,2500.81755,N,12131.69813,E,0.004,0.00,120625,,,A*00
$GNGGA,223531.926,2500.81755,N,12131.69813,E,1,08,1.0,0.0,M,0.0,M,,*00
$GNRMC,223531.976,A,2500.81533,N,12131.70270,E,0.004,0.00,120625,,,A*00
$GNGGA,223531.976,2500.81533,N,12131.70270,E,1,08,1.0,0.0,M,0.0,M,,*00
$GNRMC,223532.026,A,2500.81533,N,12131.70270,E,0.004,0.00,120625,,,A*00
$GNGGA,223532.026,2500.81533,N,12131.70270,E,1,08,1.0,0.0,M,0.0,M,,*00
$GNRMC,223532.076,A,2500.81533,N,12131.70270,E,0.004,0.00,120625,,,A*00
$GNGGA,223532.076,2500.81533,N,12131.70270,E,1,08,1.0,0.0,M,0.0,M,,*00
$GNRMC,223532.126,A,2500.81533,N,12131.70270,E,0.004,0.00,120625,,,A*00
$GNGGA,223532.126,2500.81533,N,12131.70270,E,1,08,1.0,0.0,M,0.0,M,,*00
$GNRMC,223532.176,A,2500.81354,N,12131.70679,E,0.004,0.00,120625,,,A*00
$GNGGA,223532.176,2500.81354,N,12131.70679,E,1,08,1.0,0.0,M,0.0,M,,*00
$GNRMC,223532.226,A,2500.81354,N,12131.70679,E,0.004,0.00,120625,,,A*00
$GNGGA,223532.226,2500.81354,N,12131.70679,E,1,08,1.0,0.0,M,0.0,M,,*00
$GNRMC,223532.276,A,2500.81354,N,12131.70679,E,0.004,0.00,120625,,,A*00
$GNGGA,223532.276,2500.81354,N,12131.70679,E,1,08,1.0,0.0,M,0.0,M,,*00
$GNRMC,223532.326,A,2500.81354,N,12131.70679,E,0.004,0.00,120625,,,A*00
$GNGGA,223532.326,2500.81354,N,12131.70679,E,1,08,1.0,0.0,M,0.0,M,,*00
$GNRMC,223532.376,A,2500.81177,N,12131.70701,E,0.004,0.00,120625,,,A*00
$GNGGA,223532.376,2500.81177,N,12131.70701,E,1,08,1.0,0.0,M,0.0,M,,*00
$GNRMC,223532.426,A,2500.81177,N,12131.70701,E,0.004,0.00,120625,,,A*00
$GNGGA,223532.426,2500.81177,N,12131.70701,E,1,08,1.0,0.0,M,0.0,M,,*00
$GNRMC,223532.476,A,2500.81177,N,12131.70701,E,0.004,0.00,120625,,,A*00
$GNGGA,223532.476,2500.81177,N,12131.70701,E,1,08,1.0,0.0,M,0.0,M,,*00
$GNRMC,223532.526,A,2500.81177,N,12131.70701,E,0.004,0.00,120625,,,A*00
$GNGGA,223532.526,2500.81177,N,12131.70701,E,1,08,1.0,0.0,M,0.0,M,,*00
$GNRMC,223532.576,A,2500.81047,N,12131.70579,E,0.004,0.00,120625,,,A*00
$GNGGA,223532.576,2500.81047,N,12131.70579,E,1,08,1.0,0.0,M,0.0,M,,*00
$GNRMC,223532.626,A,2500.81047,N,12131.70579,E,0.004,0.00,120625,,,A*00
$GNGGA,223532.626,2500.81047,N,12131.70579,E,1,08,1.0,0.0,M,0.0,M,,*00
$GNRMC,223532.676,A,2500.81047,N,12131.70579,E,0.004,0.00,120625,,,A*00
$GNGGA,223532.676,2500.81047,N,12131.70579,E,1,08,1.0,0.0,M,0.0,M,,*00
$GNRMC,223532.726,A,2500.81047,N,12131.70579,E,0.004,0.00,120625,,,A*00
$GNGGA,223532.726,2500.81047,N,12131.70579,E,1,08,1.0,0.0,M,0.0,M,,*00
$GNRMC,223532.776,A,2500.80904,N,12131.70101,E,0.004,0.00,120625,,,A*00
$GNGGA,223532.776,2500.80904,N,12131.70101,E,1,08,1.0,0.0,M,0.0,M,,*00
$GNRMC,223532.826,A,2500.80904,N,12131.70101,E,0.004,0.00,120625,,,A*00
$GNGGA,223532.826,2500.80904,N,12131.70101,E,1,08,1.0,0.0,M,0.0,M,,*00
$GNRMC,223532.876,A,2500.80904,N,12131.70101,E,0.004,0.00,120625,,,A*00
$GNGGA,223532.876,2500.80904,N,12131.70101,E,1,08,1.0,0.0,M,0.0,M,,*00
$GNRMC,223532.926,A,2500.80904,N,12131.70101,E,0.004,0.00,120625,,,A*00
$GNGGA,223532.926,2500.80904,N,12131.70101,E,1,08,1.0,0.0,M,0.0,M,,*00
$GNRMC,223532.976,A,2500.81626,N,12131.69378,E,0.004,0.00,120625,,,A*00
$GNGGA,223532.976,2500.81626,N,12131.69378,E,1,08,1.0,0.0,M,0.0,M,,*00
$GNRMC,223533.026,A,2500.81626,N,12131.69378,E,0.004,0.00,120625,,,A*00
$GNGGA,223533.026,2500.81626,N,12131.69378,E,1,08,1.0,0.0,M,0.0,M,,*00
$GNRMC,223533.076,A,2500.81626,N,12131.69378,E,0.004,0.00,120625,,,A*00
$GNGGA,223533.076,2500.81626,N,12131.69378,E,1,08,1.0,0.0,M,0.0,M,,*00
$GNRMC,223533.126,A,2500.81626,N,12131.69378,E,0.004,0.00,120625,,,A*00
$GNGGA,223533.126,2500.81626,N,12131.69378,E,1,08,1.0,0.0,M,0.0,M,,*00
$GNRMC,223533.176,A,2500.82027,N,12131.69037,E,0.004,0.00,120625,,,A*00
$GNGGA,223533.176,2500.82027,N,12131.69037,E,1,08,1.0,0.0,M,0.0,M,,*00
$GNRMC,223533.226,A,2500.82027,N,12131.69037,E,0.004,0.00,120625,,,A*00
$GNGGA,223533.226,2500.82027,N,12131.69037,E,1,08,1.0,0.0,M,0.0,M,,*00
$GNRMC,223533.276,A,2500.82027,N,12131.69037,E,0.004,0.00,120625,,,A*00
$GNGGA,223533.276,2500.82027,N,12131.69037,E,1,08,1.0,0.0,M,0.0,M,,*00
$GNRMC,223533.326,A,2500.82027,N,12131.69037,E,0.004,0.00,120625,,,A*00
$GNGGA,223533.326,2500.82027,N,12131.69037,E,1,08,1.0,0.0,M,0.0,M,,*00
$GNRMC,223533.376,A,2500.82346,N,12131.69232,E,0.004,0.00,120625,,,A*00
$GNGGA,223533.376,2500.82346,N,12131.69232,E,1,08,1.0,0.0,M,0.0,M,,*00
$GNRMC,223533.426,A,2500.82346,N,12131.69232,E,0.004,0.00,120625,,,A*00
$GNGGA,223533.426,2500.82346,N,12131.69232,E,1,08,1.0,0.0,M,0.0,M,,*00
$GNRMC,223533.476,A,2500.82346,N,12131.69232,E,0.004,0.00,120625,,,A*00
$GNGGA,223533.476,2500.82346,N,12131.69232,E,1,08,1.0,0.0,M,0.0,M,,*00
$GNRMC,223533.526,A,2500.82346,N,12131.69232,E,0.004,0.00,120625,,,A*00
$GNGGA,223533.526,2500.82346,N,12131.69232,E,1,08,1.0,0.0,M,0.0,M,,*00
$GNRMC,223533.576,A,2500.82623,N,12131.69393,E,0.004,0.00,120625,,,A*00
$GNGGA,223533.576,2500.82623,N,12131.69393,E,1,08,1.0,0.0,M,0.0,M,,*00
$GNRMC,223533.626,A,2500.82623,N,12131.69393,E,0.004,0.00,120625,,,A*00
$GNGGA,223533.626,2500.82623,N,12131.69393,E,1,08,1.0,0.0,M,0.0,M,,*00
$GNRMC,223533.676,A,2500.82623,N,12131.69393,E,0.004,0.00,120625,,,A*00
$GNGGA,223533.676,2500.82623,N,12131.69393,E,1,08,1.0,0.0,M,0.0,M,,*00
$GNRMC,223533.726,A,2500.82623,N,12131.69393,E,0.004,0.00,120625,,,A*00
$GNGGA,223533.726,2500.82623,N,12131.69393,E,1,08,1.0,0.0,M,0.0,M,,*00
$GNRMC,223533.776,A,2500.82693,N,12131.69683,E,0.004,0.00,120625,,,A*00
$GNGGA,223533.776,2500.82693,N,12131.69683,E,1,08,1.0,0.0,M,0.0,M,,*00
$GNRMC,223533.826,A,2500.82693,N,12131.69683,E,0.004,0.00,120625,,,A*00
$GNGGA,223533.826,2500.82693,N,12131.69683,E,1,08,1.0,0.0,M,0.0,M,,*00
$GNRMC,223533.876,A,2500.82693,N,12131.69683,E,0.004,0.00,120625,,,A*00
$GNGGA,223533.876,2500.82693,N,12131.69683,E,1,08,1.0,0.0,M,0.0,M,,*00
$GNRMC,223533.926,A,2500.82693,N,12131.69683,E,0.004,0.00,120625,,,A*00
$GNGGA,223533.926,2500.82693,N,12131.69683,E,1,08,1.0,0.0,M,0.0,M,,*00
$GNRMC,223533.976,A,2500.82580,N,12131.70076,E,0.004,0.00,120625,,,A*00
$GNGGA,223533.976,2500.82580,N,12131.70076,E,1,08,1.0,0.0,M,0.0,M,,*00
$GNRMC,223534.026,A,2500.82580,N,12131.70076,E,0.004,0.00,120625,,,A*00
$GNGGA,223534.026,2500.82580,N,12131.70076,E,1,08,1.0,0.0,M,0.0,M,,*00
$GNRMC,223534.076,A,2500.82580,N,12131.70076,E,0.004,0.00,120625,,,A*00
$GNGGA,223534.076,2500.82580,N,12131.70076,E,1,08,1.0,0.0,M,0.0,M,,*00
$GNRMC,223534.126,A,2500.82580,N,12131.70076,E,0.004,0.00,120625,,,A*00
$GNGGA,223534.126,2500.82580,N,12131.70076,E,1,08,1.0,0.0,M,0.0,M,,*00
$GNRMC,223534.176,A,2500.82067,N,12131.70534,E,0.004,0.00,120625,,,A*00
$GNGGA,223534.176,2500.82067,N,12131.70534,E,1,08,1.0,0.0,M,0.0,M,,*00
$GNRMC,223534.226,A,2500.82067,N,12131.70534,E,0.004,0.00,120625,,,A*00
$GNGGA,223534.226,2500.82067,N,12131.70534,E,1,08,1.0,0.0,M,0.0,M,,*00
$GNRMC,223534.276,A,2500.82067,N,12131.70534,E,0.004,0.00,120625,,,A*00
$GNGGA,223534.276,2500.82067,N,12131.70534,E,1,08,1.0,0.0,M,0.0,M,,*00
$GNRMC,223534.326,A,2500.82067,N,12131.70534,E,0.004,0.00,120625,,,A*00
$GNGGA,223534.326,2500.82067,N,12131.70534,E,1,08,1.0,0.0,M,0.0,M,,*00
$GNRMC,223534.376,A,2500.81647,N,12131.70697,E,0.004,0.00,120625,,,A*00
$GNGGA,223534.376,2500.81647,N,12131.70697,E,1,08,1.0,0.0,M,0.0,M,,*00
$GNRMC,223534.426,A,2500.81647,N,12131.70697,E,0.004,0.00,120625,,,A*00
$GNGGA,223534.426,2500.81647,N,12131.70697,E,1,08,1.0,0.0,M,0.0,M,,*00
$GNRMC,223534.476,A,2500.81647,N,12131.70697,E,0.004,0.00,120625,,,A*00
$GNGGA,223534.476,2500.81647,N,12131.70697,E,1,08,1.0,0.0,M,0.0,M,,*00
$GNRMC,223534.526,A,2500.81647,N,12131.70697,E,0.004,0.00,120625,,,A*00
$GNGGA,223534.526,2500.81647,N,12131.70697,E,1,08,1.0,0.0,M,0.0,M,,*00
$GNRMC,223534.576,A,2500.81188,N,12131.70505,E,0.004,0.00,120625,,,A*00
$GNGGA,223534.576,2500.81188,N,12131.70505,E,1,08,1.0,0.0,M,0.0,M,,*00
$GNRMC,223534.626,A,2500.81188,N,12131.70505,E,0.004,0.00,120625,,,A*00
$GNGGA,223534.626,2500.81188,N,12131.70505,E,1,08,1.0,0.0,M,0.0,M,,*00
$GNRMC,223534.676,A,2500.81188,N,12131.70505,E,0.004,0.00,120625,,,A*00
$GNGGA,223534.676,2500.81188,N,12131.70505,E,1,08,1.0,0.0,M,0.0,M,,*00
$GNRMC,223534.726,A,2500.81188,N,12131.70505,E,0.004,0.00,120625,,,A*00
$GNGGA,223534.726,2500.81188,N,12131.70505,E,1,08,1.0,0.0,M,0.0,M,,*00
$GNRMC,223534.776,A,2500.80948,N,12131.70271,E,0.004,0.00,120625,,,A*00
$GNGGA,223534.776,2500.80948,N,12131.70271,E,1,08,1.0,0.0,M,0.0,M,,*00
$GNRMC,223534.826,A,2500.80948,N,12131.70271,E,0.004,0.00,120625,,,A*00
$GNGGA,223534.826,2500.80948,N,12131.70271,E,1,08,1.0,0.0,M,0.0,M,,*00
$GNRMC,223534.876,A,2500.80948,N,12131.70271,E,0.004,0.00,120625,,,A*00
$GNGGA,223534.876,2500.80948,N,12131.70271,E,1,08,1.0,0.0,M,0.0,M,,*00
$GNRMC,223534.926,A,2500.80948,N,12131.70271,E,0.004,0.00,120625,,,A*00
$GNGGA,223534.926,2500.80948,N,12131.70271,E,1,08,1.0,0.0,M,0.0,M,,*00
$GNRMC,223534.976,A,2500.80765,N,12131.69971,E,0.004,0.00,120625,,,A*00
$GNGGA,223534.976,2500.80765,N,12131.69971,E,1,08,1.0,0.0,M,0.0,M,,*00
$GNRMC,223535.026,A,2500.80765,N,12131.69971,E,0.004,0.00,120625,,,A*00
$GNGGA,223535.026,2500.80765,N,12131.69971,E,1,08,1.0,0.0,M,0.0,M,,*00
$GNRMC,223535.076,A,2500.80765,N,12131.69971,E,0.004,0.00,120625,,,A*00
$GNGGA,223535.076,2500.80765,N,12131.69971,E,1,08,1.0,0.0,M,0.0,M,,*00
$GNRMC,223535.126,A,2500.80765,N,12131.69971,E,0.004,0.00,120625,,,A*00
$GNGGA,223535.126,2500.80765,N,12131.69971,E,1,08,1.0,0.0,M,0.0,M,,*00
$GNRMC,223535.176,A,2500.80929,N,12131.69717,E,0.004,0.00,120625,,,A*00
$GNGGA,223535.176,2500.80929,N,12131.69717,E,1,08,1.0,0.0,M,0.0,M,,*00
$GNRMC,223535.226,A,2500.80929,N,12131.69717,E,0.004,0.00,120625,,,A*00
$GNGGA,223535.226,2500.80929,N,12131.69717,E,1,08,1.0,0.0,M,0.0,M,,*00
$GNRMC,223535.276,A,2500.80929,N,12131.69717,E,0.004,0.00,120625,,,A*00
$GNGGA,223535.276,2500.80929,N,12131.69717,E,1,08,1.0,0.0,M,0.0,M,,*00
$GNRMC,223535.326,A,2500.80929,N,12131.69717,E,0.004,0.00,120625,,,A*00
$GNGGA,223535.326,2500.80929,N,12131.69717,E,1,08,1.0,0.0,M,0.0,M,,*00
$GNRMC,223535.376,A,2500.81079,N,12131.69441,E,0.004,0.00,120625,,,A*00
$GNGGA,223535.376,2500.81079,N,12131.69441,E,1,08,1.0,0.0,M,0.0,M,,*00
$GNRMC,223535.426,A,2500.81079,N,12131.69441,E,0.004,0.00,120625,,,A*00
$GNGGA,223535.426,2500.81079,N,12131.69441,E,1,08,1.0,0.0,M,0.0,M,,*00
$GNRMC,223535.476,A,2500.81079,N,12131.69441,E,0.004,0.00,120625,,,A*00
$GNGGA,223535.476,2500.81079,N,12131.69441,E,1,08,1.0,0.0,M,0.0,M,,*00
$GNRMC,223535.526,A,2500.81079,N,12131.69441,E,0.004,0.00,120625,,,A*00
$GNGGA,223535.526,2500.81079,N,12131.69441,E,1,08,1.0,0.0,M,0.0,M,,*00
$GNRMC,223535.576,A,2500.81310,N,12131.69202,E,0.004,0.00,120625,,,A*00
$GNGGA,223535.576,2500.81310,N,12131.69202,E,1,08,1.0,0.0,M,0.0,M,,*00
$GNRMC,223535.626,A,2500.81310,N,12131.69202,E,0.004,0.00,120625,,,A*00
$GNGGA,223535.626,2500.81310,N,12131.69202,E,1,08,1.0,0.0,M,0.0,M,,*00
$GNRMC,223535.676,A,2500.81310,N,12131.69202,E,0.004,0.00,120625,,,A*00
$GNGGA,223535.676,2500.81310,N,12131.69202,E,1,08,1.0,0.0,M,0.0,M,,*00
$GNRMC,223535.726,A,2500.81310,N,12131.69202,E,0.004,0.00,120625,,,A*00
$GNGGA,223535.726,2500.81310,N,12131.69202,E,1,08,1.0,0.0,M,0.0,M,,*00
$GNRMC,223535.776,A,2500.81643,N,12131.69059,E,0.004,0.00,120625,,,A*00
$GNGGA,223535.776,2500.81643,N,12131.69059,E,1,08,1.0,0.0,M,0.0,M,,*00
$GNRMC,223535.826,A,2500.81643,N,12131.69059,E,0.004,0.00,120625,,,A*00
$GNGGA,223535.826,2500.81643,N,12131.69059,E,1,08,1.0,0.0,M,0.0,M,,*00
$GNRMC,223535.876,A,2500.81643,N,12131.69059,E,0.004,0.00,120625,,,A*00
$GNGGA,223535.876,2500.81643,N,12131.69059,E,1,08,1.0,0.0,M,0.0,M,,*00
$GNRMC,223535.926,A,2500.81643,N,12131.69059,E,0.004,0.00,120625,,,A*00
$GNGGA,223535.926,2500.81643,N,12131.69059,E,1,08,1.0,0.0,M,0.0,M,,*00
$GNRMC,223535.976,A,2500.81895,N,12131.69248,E,0.004,0.00,120625,,,A*00
$GNGGA,223535.976,2500.81895,N,12131.69248,E,1,08,1.0,0.0,M,0.0,M,,*00
$GNRMC,223536.026,A,2500.81895,N,12131.69248,E,0.004,0.00,120625,,,A*00
$GNGGA,223536.026,2500.81895,N,12131.69248,E,1,08,1.0,0.0,M,0.0,M,,*00
$GNRMC,223536.076,A,2500.81895,N,12131.69248,E,0.004,0.00,120625,,,A*00
$GNGGA,223536.076,2500.81895,N,12131.69248,E,1,08,1.0,0.0,M,0.0,M,,*00
$GNRMC,223536.126,A,2500.81895,N,12131.69248,E,0.004,0.00,120625,,,A*00
$GNGGA,223536.126,2500.81895,N,12131.69248,E,1,08,1.0,0.0,M,0.0,M,,*00
$GNRMC,223536.176,A,2500.81879,N,12131.69515,E,0.004,0.00,120625,,,A*00
$GNGGA,223536.176,2500.81879,N,12131.69515,E,1,08,1.0,0.0,M,0.0,M,,*00
$GNRMC,223536.226,A,2500.81879,N,12131.69515,E,0.004,0.00,120625,,,A*00
$GNGGA,223536.226,2500.81879,N,12131.69515,E,1,08,1.0,0.0,M,0.0,M,,*00
$GNRMC,223536.276,A,2500.81879,N,12131.69515,E,0.004,0.00,120625,,,A*00
$GNGGA,223536.276,2500.81879,N,12131.69515,E,1,08,1.0,0.0,M,0.0,M,,*00
$GNRMC,223536.326,A,2500.81879,N,12131.69515,E,0.004,0.00,120625,,,A*00
$GNGGA,223536.326,2500.81879,N,12131.69515,E,1,08,1.0,0.0,M,0.0,M,,*00
$GNRMC,223536.376,A,2500.81609,N,12131.69897,E,0.004,0.00,120625,,,A*00
$GNGGA,223536.376,2500.81609,N,12131.69897,E,1,08,1.0,0.0,M,0.0,M,,*00
$GNRMC,223536.426,A,2500.81609,N,12131.69897,E,0.004,0.00,120625,,,A*00
$GNGGA,223536.426,2500.81609,N,12131.69897,E,1,08,1.0,0.0,M,0.0,M,,*00
$GNRMC,223536.476,A,2500.81609,N,12131.69897,E,0.004,0.00,120625,,,A*00
$GNGGA,223536.476,2500.81609,N,12131.69897,E,1,08,1.0,0.0,M,0.0,M,,*00
$GNRMC,223536.526,A,2500.81609,N,12131.69897,E,0.004,0.00,120625,,,A*00
$GNGGA,223536.526,2500.81609,N,12131.69897,E,1,08,1.0,0.0,M,0.0,M,,*00
$GNRMC,223536.576,A,2500.81305,N,12131.70246,E,0.004,0.00,120625,,,A*00
$GNGGA,223536.576,2500.81305,N,12131.70246,E,1,08,1.0,0.0,M,0.0,M,,*00
$GNRMC,223536.626,A,2500.81305,N,12131.70246,E,0.004,0.00,120625,,,A*00
$GNGGA,223536.626,2500.81305,N,12131.70246,E,1,08,1.0,0.0,M,0.0,M,,*00
$GNRMC,223536.676,A,2500.81305,N,12131.70246,E,0.004,0.00,120625,,,A*00
$GNGGA,223536.676,2500.81305,N,12131.70246,E,1,08,1.0,0.0,M,0.0,M,,*00
$GNRMC,223536.726,A,2500.81305,N,12131.70246,E,0.004,0.00,120625,,,A*00
$GNGGA,223536.726,2500.81305,N,12131.70246,E,1,08,1.0,0.0,M,0.0,M,,*00
$GNRMC,223536.776,A,2500.80992,N,12131.70392,E,0.004,0.00,120625,,,A*00
$GNGGA,223536.776,2500.80992,N,12131.70392,E,1,08,1.0,0.0,M,0.0,M,,*00
$GNRMC,223536.826,A,2500.80992,N,12131.70392,E,0.004,0.00,120625,,,A*00
$GNGGA,223536.826,2500.80992,N,12131.70392,E,1,08,1.0,0.0,M,0.0,M,,*00
$GNRMC,223536.876,A,2500.80992,N,12131.70392,E,0.004,0.00,120625,,,A*00
$GNGGA,223536.876,2500.80992,N,12131.70392,E,1,08,1.0,0.0,M,0.0,M,,*00
$GNRMC,223536.926,A,2500.80992,N,12131.70392,E,0.004,0.00,120625,,,A*00
$GNGGA,223536.926,2500.80992,N,12131.70392,E,1,08,1.0,0.0,M,0.0,M,,*00
$GNRMC,223536.976,A,2500.80684,N,12131.70265,E,0.004,0.00,120625,,,A*00
$GNGGA,223536.976,2500.80684,N,12131.70265,E,1,08,1.0,0.0,M,0.0,M,,*00
$GNRMC,223537.026,A,2500.80684,N,12131.70265,E,0.004,0.00,120625,,,A*00
$GNGGA,223537.026,2500.80684,N,12131.70265,E,1,08,1.0,0.0,M,0.0,M,,*00
$GNRMC,223537.076,A,2500.80684,N,12131.70265,E,0.004,0.00,120625,,,A*00
$GNGGA,223537.076,2500.80684,N,12131.70265,E,1,08,1.0,0.0,M,0.0,M,,*00
$GNRMC,223537.126,A,2500.80684,N,12131.70265,E,0.004,0.00,120625,,,A*00
$GNGGA,223537.126,2500.80684,N,12131.70265,E,1,08,1.0,0.0,M,0.0,M,,*00
$GNRMC,223537.176,A,2500.80508,N,12131.69989,E,0.004,0.00,120625,,,A*00
$GNGGA,223537.176,2500.80508,N,12131.69989,E,1,08,1.0,0.0,M,0.0,M,,*00
$GNRMC,223537.226,A,2500.80508,N,12131.69989,E,0.004,0.00,120625,,,A*00
$GNGGA,223537.226,2500.80508,N,12131.69989,E,1,08,1.0,0.0,M,0.0,M,,*00
$GNRMC,223537.276,A,2500.80508,N,12131.69989,E,0.004,0.00,120625,,,A*00
$GNGGA,223537.276,2500.80508,N,12131.69989,E,1,08,1.0,0.0,M,0.0,M,,*00
$GNRMC,223537.326,A,2500.80508,N,12131.69989,E,0.004,0.00,120625,,,A*00
$GNGGA,223537.326,2500.80508,N,12131.69989,E,1,08,1.0,0.0,M,0.0,M,,*00
$GNRMC,223537.376,A,2500.80797,N,12131.69591,E,0.004,0.00,120625,,,A*00
$GNGGA,223537.376,2500.80797,N,12131.69591,E,1,08,1.0,0.0,M,0.0,M,,*00
$GNRMC,223537.426,A,2500.80797,N,12131.69591,E,0.004,0.00,120625,,,A*00
$GNGGA,223537.426,2500.80797,N,12131.69591,E,1,08,1.0,0.0,M,0.0,M,,*00
$GNRMC,223537.476,A,2500.80797,N,12131.69591,E,0.004,0.00,120625,,,A*00
$GNGGA,223537.476,2500.80797,N,12131.69591,E,1,08,1.0,0.0,M,0.0,M,,*00
$GNRMC,223537.526,A,2500.80797,N,12131.69591,E,0.004,0.00,120625,,,A*00
$GNGGA,223537.526,2500.80797,N,12131.69591,E,1,08,1.0,0.0,M,0.0,M,,*00
$GNRMC,223537.576,A,2500.81232,N,12131.69195,E,0.004,0.00,120625,,,A*00
$GNGGA,223537.576,2500.81232,N,12131.69195,E,1,08,1.0,0.0,M,0.0,M,,*00
$GNRMC,223537.626,A,2500.81232,N,12131.69195,E,0.004,0.00,120625,,,A*00
$GNGGA,223537.626,2500.81232,N,12131.69195,E,1,08,1.0,0.0,M,0.0,M,,*00
$GNRMC,223537.676,A,2500.81232,N,12131.69195,E,0.004,0.00,120625,,,A*00
$GNGGA,223537.676,2500.81232,N,12131.69195,E,1,08,1.0,0.0,M,0.0,M,,*00
$GNRMC,223537.726,A,2500.81232,N,12131.69195,E,0.004,0.00,120625,,,A*00
$GNGGA,223537.726,2500.81232,N,12131.69195,E,1,08,1.0,0.0,M,0.0,M,,*00
$GNRMC,223537.776,A,2500.81631,N,12131.68813,E,0.004,0.00,120625,,,A*00
$GNGGA,223537.776,2500.81631,N,12131.68813,E,1,08,1.0,0.0,M,0.0,M,,*00
$GNRMC,223537.826,A,2500.81631,N,12131.68813,E,0.004,0.00,120625,,,A*00
$GNGGA,223537.826,2500.81631,N,12131.68813,E,1,08,1.0,0.0,M,0.0,M,,*00
$GNRMC,223537.876,A,2500.81631,N,12131.68813,E,0.004,0.00,120625,,,A*00
$GNGGA,223537.876,2500.81631,N,12131.68813,E,1,08,1.0,0.0,M,0.0,M,,*00
$GNRMC,223537.926,A,2500.81631,N,12131.68813,E,0.004,0.00,120625,,,A*00
$GNGGA,223537.926,2500.81631,N,12131.68813,E,1,08,1.0,0.0,M,0.0,M,,*00
$GNRMC,223537.976,A,2500.81990,N,12131.68754,E,0.004,0.00,120625,,,A*00
$GNGGA,223537.976,2500.81990,N,12131.68754,E,1,08,1.0,0.0,M,0.0,M,,*00
$GNRMC,223538.026,A,2500.81990,N,12131.68754,E,0.004,0.00,120625,,,A*00
$GNGGA,223538.026,2500.81990,N,12131.68754,E,1,08,1.0,0.0,M,0.0,M,,*00
$GNRMC,223538.076,A,2500.81990,N,12131.68754,E,0.004,0.00,120625,,,A*00
$GNGGA,223538.076,2500.81990,N,12131.68754,E,1,08,1.0,0.0,M,0.0,M,,*00
$GNRMC,223538.126,A,2500.81990,N,12131.68754,E,0.004,0.00,120625,,,A*00
$GNGGA,223538.126,2500.81990,N,12131.68754,E,1,08,1.0,0.0,M,0.0,M,,*00
$GNRMC,223538.176,A,2500.82200,N,12131.69037,E,0.004,0.00,120625,,,A*00
$GNGGA,223538.176,2500.82200,N,12131.69037,E,1,08,1.0,0.0,M,0.0,M,,*00
$GNRMC,223538.226,A,2500.82200,N,12131.69037,E,0.004,0.00,120625,,,A*00
$GNGGA,223538.226,2500.82200,N,12131.69037,E,1,08,1.0,0.0,M,0.0,M,,*00
$GNRMC,223538.276,A,2500.82200,N,12131.69037,E,0.004,0.00,120625,,,A*00
$GNGGA,223538.276,2500.82200,N,12131.69037,E,1,08,1.0,0.0,M,0.0,M,,*00
$GNRMC,223538.326,A,2500.82200,N,12131.69037,E,0.004,0.00,120625,,,A*00
$GNGGA,223538.326,2500.82200,N,12131.69037,E,1,08,1.0,0.0,M,0.0,M,,*00
$GNRMC,223538.376,A,2500.82235,N,12131.69421,E,0.004,0.00,120625,,,A*00
$GNGGA,223538.376,2500.82235,N,12131.69421,E,1,08,1.0,0.0,M,0.0,M,,*00
$GNRMC,223538.426,A,2500.82235,N,12131.69421,E,0.004,0.00,120625,,,A*00
$GNGGA,223538.426,2500.82235,N,12131.69421,E,1,08,1.0,0.0,M,0.0,M,,*00
$GNRMC,223538.476,A,2500.82235,N,12131.69421,E,0.004,0.00,120625,,,A*00
$GNGGA,223538.476,2500.82235,N,12131.69421,E,1,08,1.0,0.0,M,0.0,M,,*00
$GNRMC,223538.526,A,2500.82235,N,12131.69421,E,0.004,0.00,120625,,,A*00
$GNGGA,223538.526,2500.82235,N,12131.69421,E,1,08,1.0,0.0,M,0.0,M,,*00
$GNRMC,223538.576,A,2500.82028,N,12131.69881,E,0.004,0.00,120625,,,A*00
$GNGGA,223538.576,2500.82028,N,12131.69881,E,1,08,1.0,0.0,M,0.0,M,,*00
$GNRMC,223538.626,A,2500.82028,N,12131.69881,E,0.004,0.00,120625,,,A*00
$GNGGA,223538.626,2500.82028,N,12131.69881,E,1,08,1.0,0.0,M,0.0,M,,*00
$GNRMC,223538.677,A,2500.82028,N,12131.69881,E,0.004,0.00,120625,,,A*00
$GNGGA,223538.677,2500.82028,N,12131.69881,E,1,08,1.0,0.0,M,0.0,M,,*00
$GNRMC,223538.726,A,2500.82028,N,12131.69881,E,0.004,0.00,120625,,,A*00
$GNGGA,223538.726,2500.82028,N,12131.69881,E,1,08,1.0,0.0,M,0.0,M,,*00
$GNRMC,223538.776,A,2500.81719,N,12131.70307,E,0.004,0.00,120625,,,A*00
$GNGGA,223538.776,2500.81719,N,12131.70307,E,1,08,1.0,0.0,M,0.0,M,,*00
$GNRMC,223538.826,A,2500.81719,N,12131.70307,E,0.004,0.00,120625,,,A*00
$GNGGA,223538.826,2500.81719,N,12131.70307,E,1,08,1.0,0.0,M,0.0,M,,*00
$GNRMC,223538.876,A,2500.81719,N,12131.70307,E,0.004,0.00,120625,,,A*00
$GNGGA,223538.876,2500.81719,N,12131.70307,E,1,08,1.0,0.0,M,0.0,M,,*00
$GNRMC,223538.926,A,2500.81719,N,12131.70307,E,0.004,0.00,120625,,,A*00
$GNGGA,223538.926,2500.81719,N,12131.70307,E,1,08,1.0,0.0,M,0.0,M,,*00
$GNRMC,223538.976,A,2500.81323,N,12131.70655,E,0.004,0.00,120625,,,A*00
$GNGGA,223538.976,2500.81323,N,12131.70655,E,1,08,1.0,0.0,M,0.0,M,,*00
$GNRMC,223539.026,A,2500.81323,N,12131.70655,E,0.004,0.00,120625,,,A*00
$GNGGA,223539.026,2500.81323,N,12131.70655,E,1,08,1.0,0.0,M,0.0,M,,*00
$GNRMC,223539.076,A,2500.81323,N,12131.70655,E,0.004,0.00,120625,,,A*00
$GNGGA,223539.076,2500.81323,N,12131.70655,E,1,08,1.0,0.0,M,0.0,M,,*00
$GNRMC,223539.126,A,2500.81323,N,12131.70655,E,0.004,0.00,120625,,,A*00
$GNGGA,223539.126,2500.81323,N,12131.70655,E,1,08,1.0,0.0,M,0.0,M,,*00
$GNRMC,223539.176,A,2500.81038,N,12131.70455,E,0.004,0.00,120625,,,A*00
$GNGGA,223539.176,2500.81038,N,12131.70455,E,1,08,1.0,0.0,M,0.0,M,,*00
$GNRMC,223539.226,A,2500.81038,N,12131.70455,E,0.004,0.00,120625,,,A*00
$GNGGA,223539.226,2500.81038,N,12131.70455,E,1,08,1.0,0.0,M,0.0,M,,*00
$GNRMC,223539.276,A,2500.81038,N,12131.70455,E,0.004,0.00,120625,,,A*00
$GNGGA,223539.276,2500.81038,N,12131.70455,E,1,08,1.0,0.0,M,0.0,M,,*00
$GNRMC,223539.326,A,2500.81038,N,12131.70455,E,0.004,0.00,120625,,,A*00
$GNGGA,223539.326,2500.81038,N,12131.70455,E,1,08,1.0,0.0,M,0.0,M,,*00
$GNRMC,223539.376,A,2500.80927,N,12131.70180,E,0.004,0.00,120625,,,A*00
$GNGGA,223539.376,2500.80927,N,12131.70180,E,1,08,1.0,0.0,M,0.0,M,,*00
$GNRMC,223539.426,A,2500.80927,N,12131.70180,E,0.004,0.00,120625,,,A*00
$GNGGA,223539.426,2500.80927,N,12131.70180,E,1,08,1.0,0.0,M,0.0,M,,*00
$GNRMC,223539.476,A,2500.80927,N,12131.70180,E,0.004,0.00,120625,,,A*00
$GNGGA,223539.476,2500.80927,N,12131.70180,E,1,08,1.0,0.0,M,0.0,M,,*00
$GNRMC,223539.526,A,2500.80927,N,12131.70180,E,0.004,0.00,120625,,,A*00
$GNGGA,223539.526,2500.80927,N,12131.70180,E,1,08,1.0,0.0,M,0.0,M,,*00
$GNRMC,223539.576,A,2500.80935,N,12131.69838,E,0.004,0.00,120625,,,A*00
$GNGGA,223539.576,2500.80935,N,12131.69838,E,1,08,1.0,0.0,M,0.0,M,,*00
$GNRMC,223539.626,A,2500.80935,N,12131.69838,E,0.004,0.00,120625,,,A*00
$GNGGA,223539.626,2500.80935,N,12131.69838,E,1,08,1.0,0.0,M,0.0,M,,*00
$GNRMC,223539.676,A,2500.80935,N,12131.69838,E,0.004,0.00,120625,,,A*00
$GNGGA,223539.676,2500.80935,N,12131.69838,E,1,08,1.0,0.0,M,0.0,M,,*00
$GNRMC,223539.726,A,2500.80935,N,12131.69838,E,0.004,0.00,120625,,,A*00
$GNGGA,223539.726,2500.80935,N,12131.69838,E,1,08,1.0,0.0,M,0.0,M,,*00
$GNRMC,223539.776,A,2500.81089,N,12131.69594,E,0.004,0.00,120625,,,A*00
$GNGGA,223539.776,2500.81089,N,12131.69594,E,1,08,1.0,0.0,M,0.0,M,,*00
$GNRMC,223539.826,A,2500.81089,N,12131.69594,E,0.004,0.00,120625,,,A*00
$GNGGA,223539.826,2500.81089,N,12131.69594,E,1,08,1.0,0.0,M,0.0,M,,*00
$GNRMC,223539.877,A,2500.81089,N,12131.69594,E,0.004,0.00,120625,,,A*00
$GNGGA,223539.877,2500.81089,N,12131.69594,E,1,08,1.0,0.0,M,0.0,M,,*00
$GNRMC,223539.926,A,2500.81089,N,12131.69594,E,0.004,0.00,120625,,,A*00
$GNGGA,223539.926,2500.81089,N,12131.69594,E,1,08,1.0,0.0,M,0.0,M,,*00
$GNRMC,223539.976,A,2500.81213,N,12131.69467,E,0.004,0.00,120625,,,A*00
$GNGGA,223539.976,2500.81213,N,12131.69467,E,1,08,1.0,0.0,M,0.0,M,,*00
$GNRMC,223540.026,A,2500.81213,N,12131.69467,E,0.004,0.00,120625,,,A*00
$GNGGA,223540.026,2500.81213,N,12131.69467,E,1,08,1.0,0.0,M,0.0,M,,*00
$GNRMC,223540.076,A,2500.81213,N,12131.69467,E,0.004,0.00,120625,,,A*00
$GNGGA,223540.076,2500.81213,N,12131.69467,E,1,08,1.0,0.0,M,0.0,M,,*00
$GNRMC,223540.127,A,2500.81213,N,12131.69467,E,0.004,0.00,120625,,,A*00
$GNGGA,223540.127,2500.81213,N,12131.69467,E,1,08,1.0,0.0,M,0.0,M,,*00
$GNRMC,223540.176,A,2500.81157,N,12131.69446,E,0.004,0.00,120625,,,A*00
$GNGGA,223540.176,2500.81157,N,12131.69446,E,1,08,1.0,0.0,M,0.0,M,,*00
$GNRMC,223540.226,A,2500.81157,N,12131.69446,E,0.004,0.00,120625,,,A*00
$GNGGA,223540.226,2500.81157,N,12131.69446,E,1,08,1.0,0.0,M,0.0,M,,*00
$GNRMC,223540.276,A,2500.81157,N,12131.69446,E,0.004,0.00,120625,,,A*00
$GNGGA,223540.276,2500.81157,N,12131.69446,E,1,08,1.0,0.0,M,0.0,M,,*00
$GNRMC,223540.326,A,2500.81157,N,12131.69446,E,0.004,0.00,120625,,,A*00
$GNGGA,223540.326,2500.81157,N,12131.69446,E,1,08,1.0,0.0,M,0.0,M,,*00
$GNRMC,223540.376,A,2500.81019,N,12131.69527,E,0.004,0.00,120625,,,A*00
$GNGGA,223540.376,2500.81019,N,12131.69527,E,1,08,1.0,0.0,M,0.0,M,,*00
$GNRMC,223540.426,A,2500.81019,N,12131.69527,E,0.004,0.00,120625,,,A*00
$GNGGA,223540.426,2500.81019,N,12131.69527,E,1,08,1.0,0.0,M,0.0,M,,*00
$GNRMC,223540.476,A,2500.81019,N,12131.69527,E,0.004,0.00,120625,,,A*00
$GNGGA,223540.476,2500.81019,N,12131.69527,E,1,08,1.0,0.0,M,0.0,M,,*00
$GNRMC,223540.526,A,2500.81019,N,12131.69527,E,0.004,0.00,120625,,,A*00
$GNGGA,223540.526,2500.81019,N,12131.69527,E,1,08,1.0,0.0,M,0.0,M,,*00
$GNRMC,223540.576,A,2500.80842,N,12131.69728,E,0.004,0.00,120625,,,A*00
$GNGGA,223540.576,2500.80842,N,12131.69728,E,1,08,1.0,0.0,M,0.0,M,,*00
$GNRMC,223540.626,A,2500.80842,N,12131.69728,E,0.004,0.00,120625,,,A*00
$GNGGA,223540.626,2500.80842,N,12131.69728,E,1,08,1.0,0.0,M,0.0,M,,*00
$GNRMC,223540.676,A,2500.80842,N,12131.69728,E,0.004,0.00,120625,,,A*00
$GNGGA,223540.676,2500.80842,N,12131.69728,E,1,08,1.0,0.0,M,0.0,M,,*00
$GNRMC,223540.726,A,2500.80842,N,12131.69728,E,0.004,0.00,120625,,,A*00
$GNGGA,223540.726,2500.80842,N,12131.69728,E,1,08,1.0,0.0,M,0.0,M,,*00
$GNRMC,223540.776,A,2500.80689,N,12131.69951,E,0.004,0.00,120625,,,A*00
$GNGGA,223540.776,2500.80689,N,12131.69951,E,1,08,1.0,0.0,M,0.0,M,,*00
$GNRMC,223540.826,A,2500.80689,N,12131.69951,E,0.004,0.00,120625,,,A*00
$GNGGA,223540.826,2500.80689,N,12131.69951,E,1,08,1.0,0.0,M,0.0,M,,*00
$GNRMC,223540.876,A,2500.80689,N,12131.69951,E,0.004,0.00,120625,,,A*00
$GNGGA,223540.876,2500.80689,N,12131.69951,E,1,08,1.0,0.0,M,0.0,M,,*00
$GNRMC,223540.926,A,2500.80689,N,12131.69951,E,0.004,0.00,120625,,,A*00
$GNGGA,223540.926,2500.80689,N,12131.69951,E,1,08,1.0,0.0,M,0.0,M,,*00
$GNRMC,223540.976,A,2500.80572,N,12131.70209,E,0.004,0.00,120625,,,A*00
$GNGGA,223540.976,2500.80572,N,12131.70209,E,1,08,1.0,0.0,M,0.0,M,,*00
$GNRMC,223541.026,A,2500.80572,N,12131.70209,E,0.004,0.00,120625,,,A*00
$GNGGA,223541.026,2500.80572,N,12131.70209,E,1,08,1.0,0.0,M,0.0,M,,*00
$GNRMC,223541.076,A,2500.80572,N,12131.70209,E,0.004,0.00,120625,,,A*00
$GNGGA,223541.076,2500.80572,N,12131.70209,E,1,08,1.0,0.0,M,0.0,M,,*00
$GNRMC,223541.126,A,2500.80572,N,12131.70209,E,0.004,0.00,120625,,,A*00
$GNGGA,223541.126,2500.80572,N,12131.70209,E,1,08,1.0,0.0,M,0.0,M,,*00
$GNRMC,223541.176,A,2500.80304,N,12131.70261,E,0.004,0.00,120625,,,A*00
$GNGGA,223541.176,2500.80304,N,12131.70261,E,1,08,1.0,0.0,M,0.0,M,,*00
$GNRMC,223541.226,A,2500.80304,N,12131.70261,E,0.004,0.00,120625,,,A*00
$GNGGA,223541.226,2500.80304,N,12131.70261,E,1,08,1.0,0.0,M,0.0,M,,*00
$GNRMC,223541.276,A,2500.80304,N,12131.70261,E,0.004,0.00,120625,,,A*00
$GNGGA,223541.276,2500.80304,N,12131.70261,E,1,08,1.0,0.0,M,0.0,M,,*00
$GNRMC,223541.326,A,2500.80304,N,12131.70261,E,0.004,0.00,120625,,,A*00
$GNGGA,223541.326,2500.80304,N,12131.70261,E,1,08,1.0,0.0,M,0.0,M,,*00
$GNRMC,223541.376,A,2500.80229,N,12131.70207,E,0.004,0.00,120625,,,A*00
$GNGGA,223541.376,2500.80229,N,12131.70207,E,1,08,1.0,0.0,M,0.0,M,,*00
$GNRMC,223541.426,A,2500.80229,N,12131.70207,E,0.004,0.00,120625,,,A*00
$GNGGA,223541.426,2500.80229,N,12131.70207,E,1,08,1.0,0.0,M,0.0,M,,*00
$GNRMC,223541.476,A,2500.80229,N,12131.70207,E,0.004,0.00,120625,,,A*00
$GNGGA,223541.476,2500.80229,N,12131.70207,E,1,08,1.0,0.0,M,0.0,M,,*00
$GNRMC,223541.526,A,2500.80229,N,12131.70207,E,0.004,0.00,120625,,,A*00
$GNGGA,223541.526,2500.80229,N,12131.70207,E,1,08,1.0,0.0,M,0.0,M,,*00
$GNRMC,223541.576,A,2500.80113,N,12131.69935,E,0.004,0.00,120625,,,A*00
$GNGGA,223541.576,2500.80113,N,12131.69935,E,1,08,1.0,0.0,M,0.0,M,,*00
$GNRMC,223541.626,A,2500.80113,N,12131.69935,E,0.004,0.00,120625,,,A*00
$GNGGA,223541.626,2500.80113,N,12131.69935,E,1,08,1.0,0.0,M,0.0,M,,*00
$GNRMC,223541.676,A,2500.80113,N,12131.69935,E,0.004,0.00,120625,,,A*00
$GNGGA,223541.676,2500.80113,N,12131.69935,E,1,08,1.0,0.0,M,0.0,M,,*00
$GNRMC,223541.726,A,2500.80113,N,12131.69935,E,0.004,0.00,120625,,,A*00
$GNGGA,223541.726,2500.80113,N,12131.69935,E,1,08,1.0,0.0,M,0.0,M,,*00
$GNRMC,223541.776,A,2500.80187,N,12131.69620,E,0.004,0.00,120625,,,A*00
$GNGGA,223541.776,2500.80187,N,12131.69620,E,1,08,1.0,0.0,M,0.0,M,,*00
$GNRMC,223541.826,A,2500.80187,N,12131.69620,E,0.004,0.00,120625,,,A*00
$GNGGA,223541.826,2500.80187,N,12131.69620,E,1,08,1.0,0.0,M,0.0,M,,*00
$GNRMC,223541.876,A,2500.80187,N,12131.69620,E,0.004,0.00,120625,,,A*00
$GNGGA,223541.876,2500.80187,N,12131.69620,E,1,08,1.0,0.0,M,0.0,M,,*00
$GNRMC,223541.926,A,2500.80187,N,12131.69620,E,0.004,0.00,120625,,,A*00
$GNGGA,223541.926,2500.80187,N,12131.69620,E,1,08,1.0,0.0,M,0.0,M,,*00
$GNRMC,223541.976,A,2500.80299,N,12131.69420,E,0.004,0.00,120625,,,A*00
$GNGGA,223541.976,2500.80299,N,12131.69420,E,1,08,1.0,0.0,M,0.0,M,,*00
$GNRMC,223542.026,A,2500.80299,N,12131.69420,E,0.004,0.00,120625,,,A*00
$GNGGA,223542.026,2500.80299,N,12131.69420,E,1,08,1.0,0.0,M,0.0,M,,*00
$GNRMC,223542.076,A,2500.80299,N,12131.69420,E,0.004,0.00,120625,,,A*00
$GNGGA,223542.076,2500.80299,N,12131.69420,E,1,08,1.0,0.0,M,0.0,M,,*00
$GNRMC,223542.126,A,2500.80299,N,12131.69420,E,0.004,0.00,120625,,,A*00
$GNGGA,223542.126,2500.80299,N,12131.69420,E,1,08,1.0,0.0,M,0.0,M,,*00
